,city,language,latitude,longitude,iso3,stargazers_count
0,Wales,JavaScript,52.1307,3.7837,USA,7793
1,Berlin,PHP,52.52181866,13.40154862,DEU,4540
2,Westport,SQLPL,-41.77443223,171.5666665,NZL,3950
3,Hamburg,JavaScript,53.55002464,9.999999144,DEU,3438
4,Southampton,Python,50.90003135,-1.399976849,GBR,1859
5,Helsinki,JavaScript,60.17556337,24.93412634,FIN,1818
7,Tokyo,JavaScript,35.68501691,139.7514074,JPN,1730
8,Portland,CoffeeScript,45.52002382,-122.6799901,USA,1707
11,Amsterdam,Go,52.34996869,4.916640176,NLD,1334
12,Chicago,JavaScript,41.82999066,-87.75005497,USA,930
13,Nagoya,Go,35.15499758,136.9149914,JPN,875
14,Athens,JavaScript,33.96129783,-83.3780221,USA,843
16,San Francisco,JavaScript,37.74000775,-122.4599777,USA,719
20,New York,HTML,40.74997906,-73.98001693,USA,671
21,Singapore,Objective-C,1.293033466,103.8558207,SGP,518
22,Jyväskylä,JavaScript,62.26034568,25.74999385,FIN,478
23,Dublin,Objective-C,53.33306114,-6.248905682,IRL,462
25,London,JavaScript,37.12888226,-84.08335372,USA,440
28,Madrid,Shell,40.40002626,-3.683351686,ESP,415
31,Paris,JavaScript,48.86669293,2.333335326,FRA,394
32,Seattle,Python,47.57000205,-122.339985,USA,382
35,Montréal,Python,45.49999921,-73.58329696,CAN,334
40,Pittsburgh,REALbasic,40.4299986,-79.99998539,USA,239
41,Munich,Ruby,48.12994204,11.57499345,DEU,231
42,Prizren,PHP,42.22932029,20.75009232,KOS,202
43,Carlsbad,Java,32.420565,-104.2282998,USA,201
44,Catania,C,37.49997072,15.07999914,ITA,198
49,Waterloo,JavaScript,42.49315432,-92.34279789,USA,173
50,Stuttgart,PHP,48.77997988,9.199996296,DEU,170
51,Prague,Java,50.08333701,14.46597978,CZE,168
52,Mexico City,JavaScript,19.44244244,-99.1309882,MEX,166
53,Leeds,PHP,53.83000755,-1.580017539,GBR,166
55,Bologna,Java,44.50042198,11.34002071,ITA,159
56,Vilnius,PHP,54.68336631,25.31663529,LTU,159
57,Brighton,Go,50.83034568,-0.169974407,GBR,156
59,Auckland,CoffeeScript,-36.850013,174.7649808,NZL,154
62,Austin,Python,30.26694969,-97.74277836,USA,153
64,Tampa,C#,27.94698793,-82.45862085,USA,150
65,Sydney,Swift,46.06611452,-60.17998071,CAN,147
67,Bremen,Processing,53.08000165,8.80002071,DEU,144
68,Seville,JavaScript,37.40501528,-5.980007366,ESP,144
69,Brisbane,C#,-27.45503091,153.0350927,AUS,140
71,Minneapolis,Ruby,44.97997927,-93.25178634,USA,138
77,Riga,PHP,56.95002382,24.09996537,LVA,128
78,Florida,C#,-34.09900201,-56.21499845,URY,128
84,Kuala Lumpur,PHP,3.166665872,101.6999833,MYS,120
86,Barcelona,C++,10.13037518,-64.72001367,VEN,116
92,Medellin,Ruby,6.275003274,-75.57501001,COL,111
93,Kiev,JavaScript,50.43336733,30.51662797,UKR,110
95,San Rafael,Ruby,-16.77950682,-60.6799502,BOL,108
99,Cambridge,Go,52.20039125,0.116623086,GBR,101
101,Irvine,JavaScript,33.68041058,-117.8299502,USA,97
103,Stockholm,Java,59.35075995,18.09733473,SWE,94
104,Sacramento,PHP,38.57502138,-121.4700381,USA,91
107,Madison,Ruby,43.07301556,-89.40111699,USA,91
110,Boston,Python,42.32996014,-71.07001367,USA,85
111,Denver,Objective-C,39.73918805,-104.984016,USA,84
112,San Diego,JavaScript,32.82002382,-117.1799899,USA,83
121,Tulsa,JavaScript,36.12000327,-95.93002079,USA,76
122,Birmingham,PHP,33.53000633,-86.82499516,USA,75
125,Edinburgh,JavaScript,55.94832786,-3.219090618,GBR,71
126,Missoula,OpenEdge ABL,46.87224103,-113.9930526,USA,70
127,Santiago,JavaScript,19.50000999,-70.67001225,DOM,66
136,Ottawa,Objective-C,45.4166968,-75.7000153,CAN,61
141,Philadelphia,PHP,39.99997316,-75.16999597,USA,56
144,Scottsdale,C#,-41.14949217,147.5166699,AUS,54
154,Bangalore,Python,12.96999514,77.56000972,IND,44
160,Hobart,JavaScript,-42.85000853,147.2950297,AUS,42
162,Sofia,TypeScript,42.68334943,23.31665401,BGR,41
164,Belo Horizonte,Java,-19.91502602,-43.91500452,BRA,39
166,Grand Rapids,PHP,42.96371991,-85.66994938,USA,38
167,Oslo,Shell,59.91669029,10.74997921,NOR,38
169,Milan,C,45.4699752,9.20500891,ITA,37
174,Norwich,PHP,52.63036501,1.300013386,GBR,35
181,Boulder,Jupyter Notebook,40.03844627,-105.246093,USA,33
183,Eugene,JavaScript,44.05001019,-123.1000161,USA,31
187,Las Vegas,CSS,35.59701194,-105.2225027,USA,31
190,Omaha,Java,41.24000083,-96.00999007,USA,30
192,Berkeley,Prolog,37.87390139,-122.271152,USA,30
194,Melbourne,CSS,-37.82003131,144.9750162,AUS,29
198,Durham,Clojure,35.99995892,-78.91999964,USA,28
199,Buenos Aires,Python,-34.60250161,-58.39753137,ARG,27
200,Novi Sad,Java,45.2503762,19.84994055,SRB,27
201,Brussels,Python,50.83331708,4.333316608,BEL,26
202,Nottingham,Ruby,52.97034426,-1.170016725,GBR,26
212,Beijing,ActionScript,39.92889223,116.3882857,CHN,25
214,Salt Lake City,Python,40.7750163,-111.9300519,USA,24
219,Rio de Janeiro,Python,-22.92502317,-43.22502079,BRA,22
223,New Haven,Ruby,41.33038291,-72.90000533,USA,21
227,Vienna,Python,48.20001528,16.36663896,AUT,20
230,San Marcos,JavaScript,29.88307131,-97.94111251,USA,20
239,Seoul,Python,37.5663491,126.999731,KOR,19
243,San Jose,JavaScript,13.93972958,-90.82003203,GTM,18
249,Kanazawa,JavaScript,36.56000226,136.6400211,JPN,18
251,Bend,Ruby,44.071921,-121.3099962,USA,18
254,Boise,JavaScript,43.60859011,-116.2274899,USA,17
255,Ontario,C,44.02662661,-116.9618895,USA,17
256,Atlanta,JavaScript,33.83001385,-84.39994938,USA,17
260,San Antonio,Python,-33.59951373,-71.60998071,CHL,17
262,Los Angeles,Perl,33.98997825,-118.1799805,USA,16
265,Concord,JavaScript,43.20807192,-71.53804712,USA,16
268,Shanghai,JavaScript,31.21645245,121.4365047,CHN,16
275,Jakarta,PHP,-6.174417705,106.8294376,IDN,16
277,Provo,Ruby,40.24889854,-111.63777,USA,15
282,Toronto,Objective-C,43.69997988,-79.42002079,CAN,15
283,Edmonton,Ruby,53.55002464,-113.4999819,CAN,15
302,Dallas,C,32.82002382,-96.84001693,USA,14
306,Moscow,PHP,55.75216412,37.61552283,RUS,14
309,Curitiba,JavaScript,-25.420013,-49.3199976,BRA,14
334,Virginia,Objective-C,47.52367413,-92.53640365,USA,13
344,Budapest,Ruby,47.50000633,19.08332068,HUN,12
345,Cluj-Napoca,JavaScript,46.78842185,23.5984456,ROU,12
365,Hyderabad,Ruby,17.39998313,78.47995357,IND,11
372,Detroit,PHP,42.32996014,-83.08005579,USA,10
373,Nagano,JavaScript,36.64999676,138.1700052,JPN,10
376,Annecy,Objective-C,45.89997479,6.116670287,FRA,10
379,Stavanger,Shell,58.97000389,5.680004434,NOR,10
390,Fukuoka,JavaScript,33.59501528,130.4100138,JPN,9
393,Vancouver,C,49.27341658,-123.1216442,CAN,9
397,Wellington,PHP,-41.29997394,174.7832743,NZL,9
399,Pisa,C++,43.72046958,10.40002641,ITA,9
404,Granada,PHP,11.93372764,-85.94998397,NIC,8
408,Caracas,Ruby,10.50099855,-66.91703719,VEN,8
410,Chelyabinsk,Swift,55.15499127,61.43866817,RUS,8
414,Taipei,C++,25.03583333,121.5683333,TWN,8
416,Bangkok,Ruby,13.74999921,100.5166447,THA,8
426,Annapolis,Ruby,38.9783301,-76.49249923,USA,8
432,Toulouse,C++,43.61995892,1.449926716,FRA,8
442,Spokane,Python,47.66999595,-117.4199494,USA,7
445,Halifax,Ruby,44.65002525,-63.60000452,CAN,7
447,Evanston,Python,42.04834943,-87.69995467,USA,7
462,The Hague,PHP,52.08003684,4.269961302,NLD,6
463,Ålesund,Java,62.54541872,6.388023233,NOR,6
469,Strasbourg,PHP,48.57996625,7.750007282,FRA,6
473,Luzern,Ruby,47.05042137,8.280000772,CHE,6
475,Indianapolis,JavaScript,39.74998842,-86.17004806,USA,6
477,Ann Arbor,Python,42.30037539,-83.71999089,USA,6
482,Bristol,Ruby,51.44999778,-2.583315472,GBR,6
503,Nashville,Python,36.16997438,-86.77998499,USA,6
510,Lowell,Ruby,42.63368837,-71.31669112,USA,5
527,Cape Town,C,-33.92001097,18.43498816,ZAF,5
528,Rosario,PHP,-2.940041485,-44.26002222,BRA,5
529,Fort Collins,C#,40.56068829,-105.0588693,USA,5
531,Adelaide,Java,-34.93498777,138.6000048,AUS,5
543,Chennai,Python,13.08998781,80.27999874,IND,5
555,Venice,Ruby,45.43865928,12.33499874,ITA,4
565,Akron,PowerShell,41.07039878,-81.51999597,USA,4
572,Fortaleza,PHP,-3.750017884,-38.57998132,BRA,4
578,Kampala,Java,0.316658955,32.58332353,UGA,4
580,New Delhi,Java,28.60002301,77.19998002,IND,4
586,Armenia,JavaScript,4.534282653,-75.68112757,COL,4
589,Charlotte,Ruby,35.20499453,-80.83003809,USA,4
591,Manchester,JavaScript,53.50041526,-2.247987103,GBR,4
597,Baltimore,Ruby,39.29999005,-76.61998499,USA,4
599,Bucaramanga,Python,7.1300932,-73.12588302,COL,4
601,Buffalo,JavaScript,42.87997825,-78.88000208,USA,4
611,Columbia,PHP,35.61499534,-87.03526656,USA,4
623,Houston,JavaScript,29.81997438,-95.33997929,USA,4
638,Lagos,Java,6.443261653,3.391531071,NGA,3
644,Kigali,Shell,-1.953590069,30.06053178,RWA,3
645,Gurgaon,JavaScript,28.45000633,77.01999101,IND,3
650,Istanbul,Python,41.10499615,29.01000159,TUR,3
653,Lexington,Java,38.05001467,-84.50002079,USA,3
656,Innsbruck,C++,47.28040733,11.4099906,AUT,3
661,Burlington,Ruby,44.47579816,-73.21246688,USA,3
684,Phoenix,JavaScript,33.53997988,-112.0699917,USA,3
690,Anchorage,Ruby,61.21996991,-149.9002149,USA,3
703,Lisbon,PHP,38.72272288,-9.144866305,PRT,2
709,Chandigarh,PHP,30.71999697,76.78000565,IND,2
714,Santa Rosa,JavaScript,-36.6200012,-64.29998763,ARG,2
719,New Orleans,JavaScript,29.99500246,-90.03996688,USA,2
725,Szeged,C#,46.25039268,20.15002559,HUN,2
739,Perth,C#,-31.95501463,115.8399987,AUS,2
743,Lausanne,HTML,46.53042727,6.650022744,CHE,2
757,Accra,Erlang,5.550034606,-0.21671574,GHA,2
775,Yogyakarta,JavaScript,-7.77995278,110.3750093,IDN,2
780,Milwaukee,Java,43.05265505,-87.91996708,USA,2
800,Roma,ActionScript,-26.55937498,148.7907006,AUS,2
819,Niteroi,JavaScript,-22.90001178,-43.09998967,BRA,2
827,Sioux Falls,Clojure,43.54998903,-96.7299978,USA,2
828,Greenville,C++,33.41037539,-91.06168746,USA,2
830,Hong Kong,JavaScript,22.3049809,114.1850093,HKG,2
846,Frauenfeld,JavaScript,47.56799717,9.108000502,CHE,2
865,Goiania,JavaScript,-16.72002724,-49.30002466,BRA,2
877,Huntsville,Shell,34.71995953,-86.60999536,USA,2
893,St. Petersburg,JavaScript,59.93901451,30.31602006,RUS,1
894,Oakland,Python,37.76892071,-122.2211034,USA,1
927,Rome,C,41.89595563,12.48325842,ITA,1
935,Montevideo,Clojure,-34.85804157,-56.17105229,URY,1
939,Memphis,Java,35.1199868,-89.99999516,USA,1
955,Amman,Ruby,31.95002525,35.93329993,JOR,1
960,Providence,Python,41.82110231,-71.4149797,USA,1
967,Zürich,C,47.37998781,8.55001013,CHE,1
977,Fort Wayne,C++,41.08039817,-85.12998234,USA,1
993,Minsk,Shell,53.89997744,27.56662716,BLR,1
998,Duluth,Ruby,46.78333173,-92.10637822,USA,1
1006,Warsaw,Python,52.25000063,20.99999955,POL,1
1008,Växjö,PHP,56.88369712,14.81670772,SWE,1
1010,Volos,JavaScript,39.36995994,22.95000972,GRC,1
1020,Bern,C++,46.91668276,7.466975462,CHE,1
1033,Cleveland,JavaScript,41.4699868,-81.69499821,USA,1
1036,Campina Grande,C,-7.230012188,-35.88001693,BRA,1
1040,Kraków,Objective-C,50.05997927,19.96001135,POL,1
1047,Harrisburg,ActionScript,40.27359987,-76.88474919,USA,1
1053,Tallinn,Java,59.43387738,24.72804073,EST,1
1062,Canberra,PHP,-35.28302855,149.1290262,AUS,1
1092,Szczecin,JavaScript,53.42039431,14.53000688,POL,1
1105,Brasilia,JavaScript,-15.78334023,-47.91605229,BRA,1
1106,Columbus,Java,32.47043276,-84.98001734,USA,1
1140,Leipzig,JavaScript,51.33540529,12.40998124,DEU,1
1144,Bloomington,C#,40.48459475,-88.99359664,USA,1
1145,Tampere,JavaScript,61.5000045,23.75001257,FIN,1
1152,Lincoln,PHP,-34.88000405,-61.53994938,ARG,1
1169,Red Deer,JavaScript,52.26664044,-113.8000411,CAN,0
1172,Recife,JavaScript,-8.075645326,-34.91560551,BRA,0
1173,Raleigh,Java,35.81878135,-78.64469344,USA,0
1182,Sale,HTML,-38.10957436,147.0600052,AUS,0
1241,Tbilisi,HTML,41.72500999,44.79079545,GEO,0
1242,Tashkent,JavaScript,41.31170188,69.29493282,UZB,0
1246,Turku,JavaScript,60.4538668,22.25496171,FIN,0
1309,Wroclaw,Python,51.11043194,17.03000932,POL,0
1324,Vitória,Shell,-20.32399331,-40.36599634,BRA,0
1330,Xiamen,ActionScript,24.44999208,118.080017,CHN,0
1398,Santa Cruz,HTML,36.97194629,-122.0263904,USA,0
1476,St. Paul,C#,44.94398663,-93.08497481,USA,0
1576,Calgary,VimL,51.08299176,-114.0799982,CAN,0
1612,Bucharest,Python,44.4333718,26.09994665,ROU,0
1636,Buraydah,Swift,26.36638674,43.96283565,SAU,0
1667,Dhaka,PHP,23.72305971,90.40857947,BGD,0
1679,Fort Smith,Ruby,60.00001853,-111.8833364,CAN,0
1718,Coventry,CSS,52.42040367,-1.499996583,GBR,0
1726,Delhi,PHP,28.6699929,77.23000403,IND,0
1727,Davenport,PHP,41.55398684,-90.58753036,USA,0
1740,Galway,C,53.272393,-9.048812298,IRL,0
1791,Alexandria,Ruby,43.90163107,25.28670654,ROU,0
1840,Bogor,PHP,-6.570000795,106.7500109,IDN,0
1879,Belgrade,Ruby,44.81864545,20.46799068,SRB,0
1945,Montpellier,JavaScript,43.61039878,3.869985716,FRA,0
1954,Nantes,Java,47.21038576,-1.590016929,FRA,0
2046,Porto Alegre,Shell,-30.05001463,-51.20001205,BRA,0
2064,Nova Friburgo,JavaScript,-22.25999917,-42.54004968,BRA,0
2069,Nice,Ruby,43.71501772,7.265023965,FRA,0
2110,Iqaluit,VimL,63.75045938,-68.50019175,CAN,0
2154,Katowice,PHP,50.26038047,19.02001705,POL,0
2177,Ho Chi Minh City,Ruby,10.78002545,106.6950272,VNM,0
2183,Hangzhou,Shell,30.24997398,120.1700187,CHN,0
2189,Halmstad,PHP,56.67177207,12.85558712,SWE,0
2196,Grenoble,Python,45.18038047,5.720001992,FRA,0
2230,Louisville,Shell,38.22501691,-85.74870427,USA,0
2247,Lawrence,C,38.95975242,-95.25522994,USA,0
2258,Knoxville,CSS,35.97001243,-83.92003036,USA,0
